{"type":"FeatureCollection","name":"klinikdanfarmasi_7","crs":{"type":"name","properties":{"name":"urn:ogc:def:crs:OGC:1.3:CRS84"}},"features":[{"type":"Feature","properties":{"fid":"1","OBJECTID":1.0,"ADR":"CNR HERMES & GROSVENORAVE","NAME":"SAXON SEA CLINIC","TYPE":2.0,"CLS":1.0},"geometry":{"type":"Point","coordinates":[18.48885814250308,-33.550146619307895]}},{"type":"Feature","properties":{"fid":"2","OBJECTID":2.0,"ADR":"CNR MOUNTAINSIDE BOULEVARD (MARINERS) AND SIR LOWRYS PASS","NAME":"GORDON'S BAY CDC","TYPE":1.0,"CLS":3.0},"geometry":{"type":"Point","coordinates":[18.879128270918294,-34.153366035341634]}},{"type":"Feature","properties":{"fid":"3","OBJECTID":3.0,"ADR":"61 CENTRAL CIRCLE, FISH HOEK","NAME":"FISH HOEK CLINIC","TYPE":1.0,"CLS":1.0},"geometry":{"type":"Point","coordinates":[18.426323800400979,-34.136694877197009]}},{"type":"Feature","properties":{"fid":"4","OBJECTID":4.0,"ADR":"SIMON STREET, NOMZAMO","NAME":"IKWEZI CDC","TYPE":1.0,"CLS":3.0},"geometry":{"type":"Point","coordinates":[18.866361917126792,-34.113597917495305]}},{"type":"Feature","properties":{"fid":"5","OBJECTID":5.0,"ADR":"28 CHURCH STREET SOMERSET WEST","NAME":"SOMERSET WEST CDC","TYPE":1.0,"CLS":3.0},"geometry":{"type":"Point","coordinates":[18.84814499146789,-34.085786855542345]}},{"type":"Feature","properties":{"fid":"6","OBJECTID":6.0,"ADR":"FAGAN STREET STRAND","NAME":"FAGAN STREET CLINIC","TYPE":1.0,"CLS":1.0},"geometry":{"type":"Point","coordinates":[18.829787180790102,-34.116195597249224]}},{"type":"Feature","properties":{"fid":"7","OBJECTID":7.0,"ADR":"RIETVLEI ROAD SAREPTA ","NAME":"SAREPTA CLINIC","TYPE":1.0,"CLS":1.0},"geometry":{"type":"Point","coordinates":[18.671650262549836,-33.932093603085974]}},{"type":"Feature","properties":{"fid":"8","OBJECTID":8.0,"ADR":"74 GRINDLE CRESCENT LAVENDER HILL","NAME":"LAVENDER HILL CLINIC","TYPE":1.0,"CLS":1.0},"geometry":{"type":"Point","coordinates":[18.486120310529348,-34.068430888187329]}},{"type":"Feature","properties":{"fid":"9","OBJECTID":9.0,"ADR":"C/O WALVIS AND WELGELEGEN ROADS, STRANDFONTEIN","NAME":"STRANDFONTEIN CLINIC","TYPE":1.0,"CLS":1.0},"geometry":{"type":"Point","coordinates":[18.554815820561771,-34.073079457300992]}},{"type":"Feature","properties":{"fid":"10","OBJECTID":10.0,"ADR":"C/O YUSUF & BANTAM ROAD, SCHOTCHESKLOOF ","NAME":"SCHOTSCHESKLOOF SATELLITE","TYPE":1.0,"CLS":9.0},"geometry":{"type":"Point","coordinates":[18.413294546298687,-33.919763674385244]}},{"type":"Feature","properties":{"fid":"11","OBJECTID":11.0,"ADR":"SPENCER ROAD, SALT RIVER","NAME":"SPENCER ROAD CLINIC","TYPE":1.0,"CLS":1.0},"geometry":{"type":"Point","coordinates":[18.464867603744629,-33.928985246733653]}},{"type":"Feature","properties":{"fid":"12","OBJECTID":12.0,"ADR":"CHAPEL STREET, WOODSTOCK","NAME":"CHAPEL STREET CLINIC","TYPE":1.0,"CLS":1.0},"geometry":{"type":"Point","coordinates":[18.439876650356798,-33.928850608059911]}},{"type":"Feature","properties":{"fid":"13","OBJECTID":13.0,"ADR":"C/O STANHOPE AND STATION ROAD, CLAREMONT","NAME":"CLAREMONT CLINIC","TYPE":1.0,"CLS":1.0},"geometry":{"type":"Point","coordinates":[18.466836051674814,-33.982889744807451]}},{"type":"Feature","properties":{"fid":"14","OBJECTID":14.0,"ADR":"MAIN ROAD CONSTANTIA","NAME":"ALPHEN CLINIC","TYPE":1.0,"CLS":1.0},"geometry":{"type":"Point","coordinates":[18.446135563614128,-34.019295986380314]}},{"type":"Feature","properties":{"fid":"15","OBJECTID":15.0,"ADR":"BRIGHTON STREET, KRAAIFONTEIN","NAME":"BRIGHTON STREET CLINIC","TYPE":1.0,"CLS":1.0},"geometry":{"type":"Point","coordinates":[18.705752222250741,-33.841837471392132]}},{"type":"Feature","properties":{"fid":"16","OBJECTID":16.0,"ADR":"FRANS CONRADIE  AVENUE, SCOTTSVILLE","NAME":"HARMONIE CLINIC","TYPE":1.0,"CLS":1.0},"geometry":{"type":"Point","coordinates":[18.711751308111051,-33.851325416633095]}},{"type":"Feature","properties":{"fid":"17","OBJECTID":17.0,"ADR":"NORTHPINE DRIVE, NORTHPINE","NAME":"NORTHPINE CLINIC","TYPE":1.0,"CLS":1.0},"geometry":{"type":"Point","coordinates":[18.710671154832632,-33.870992837717175]}},{"type":"Feature","properties":{"fid":"18","OBJECTID":18.0,"ADR":"DE VILLIERS STR DURBANVILLE","NAME":"DURBANVILLE CDC/CLINIC","TYPE":2.0,"CLS":2.0},"geometry":{"type":"Point","coordinates":[18.654220973822824,-33.830137762077889]}},{"type":"Feature","properties":{"fid":"19","OBJECTID":19.0,"ADR":"CNR BELHAR & ST VINCENT DRIVE, BELHAR","NAME":"ST VINCENT CDC","TYPE":1.0,"CLS":3.0},"geometry":{"type":"Point","coordinates":[18.648415148324752,-33.94520678423067]}},{"type":"Feature","properties":{"fid":"20","OBJECTID":20.0,"ADR":"48 CHESTNUT WAY BELHAR","NAME":"CHESTNUT SATELLITE","TYPE":1.0,"CLS":9.0},"geometry":{"type":"Point","coordinates":[18.620662679455961,-33.949016930082919]}},{"type":"Feature","properties":{"fid":"21","OBJECTID":21.0,"ADR":"ALBOW ROAD, RUGBY","NAME":"ALBOW GARDENS CDC","TYPE":1.0,"CLS":3.0},"geometry":{"type":"Point","coordinates":[18.490007821782108,-33.900352715894876]}},{"type":"Feature","properties":{"fid":"22","OBJECTID":22.0,"ADR":"NORFOLK ROAD , MAITLAND","NAME":"MAITLAND CLINIC","TYPE":1.0,"CLS":1.0},"geometry":{"type":"Point","coordinates":[18.489084058013162,-33.922066148656569]}},{"type":"Feature","properties":{"fid":"23","OBJECTID":23.0,"ADR":"ST STEPHENS ROAD, PINELANDS","NAME":"PINELANDS SATELLITE","TYPE":1.0,"CLS":9.0},"geometry":{"type":"Point","coordinates":[18.498761378300962,-33.938344172696539]}},{"type":"Feature","properties":{"fid":"24","OBJECTID":24.0,"ADR":"SMITH STREET PAROW","NAME":"PAROW CLINIC/CDC","TYPE":2.0,"CLS":2.0},"geometry":{"type":"Point","coordinates":[18.586883069333307,-33.905062040092034]}},{"type":"Feature","properties":{"fid":"25","OBJECTID":25.0,"ADR":"C/O DE GRENDEL AVENUE AND SWELLENGREBEL AVENUE, BOTHASIG","NAME":"BOTHASIG CLINIC","TYPE":2.0,"CLS":1.0},"geometry":{"type":"Point","coordinates":[18.540547957885899,-33.858243836842092]}},{"type":"Feature","properties":{"fid":"26","OBJECTID":26.0,"ADR":"HALT ROAD, ELSIES RIVER","NAME":"ELSIES RIVER CLINIC","TYPE":1.0,"CLS":1.0},"geometry":{"type":"Point","coordinates":[18.575130377498727,-33.929655040740215]}},{"type":"Feature","properties":{"fid":"27","OBJECTID":27.0,"ADR":"SEBOA STREET, ELSIES RIVER","NAME":"ADRIAANSE CLINIC","TYPE":1.0,"CLS":1.0},"geometry":{"type":"Point","coordinates":[18.584992248236706,-33.937691237359402]}},{"type":"Feature","properties":{"fid":"28","OBJECTID":28.0,"ADR":"CNR BONTEHEUWEL & JAKKALSVLEI AVE, NETREG","NAME":"NETREG CLINIC","TYPE":1.0,"CLS":1.0},"geometry":{"type":"Point","coordinates":[18.560426618881689,-33.948861483407782]}},{"type":"Feature","properties":{"fid":"29","OBJECTID":29.0,"ADR":"C/O ANGELA & JOHANNES STREET, VALHALLA PARK","NAME":"VALHALLA PARK CLINIC","TYPE":1.0,"CLS":1.0},"geometry":{"type":"Point","coordinates":[18.570447584647283,-33.953587989269728]}},{"type":"Feature","properties":{"fid":"30","OBJECTID":30.0,"ADR":"MZIMKULUS DAKUSE STREET, GUGULETHU","NAME":"VUYANI CLINIC","TYPE":1.0,"CLS":1.0},"geometry":{"type":"Point","coordinates":[18.56950515160479,-33.973023991437479]}},{"type":"Feature","properties":{"fid":"31","OBJECTID":31.0,"ADR":"E MJODO STREET, KTC, NYANGA","NAME":"MASINCEDANE CLINIC","TYPE":1.0,"CLS":1.0},"geometry":{"type":"Point","coordinates":[18.579674383471144,-33.987542264872204]}},{"type":"Feature","properties":{"fid":"32","OBJECTID":32.0,"ADR":"CNR NY1 AND NY3","NAME":"GUGULETU CLINIC","TYPE":1.0,"CLS":1.0},"geometry":{"type":"Point","coordinates":[18.565822337338489,-33.987351289990031]}},{"type":"Feature","properties":{"fid":"33","OBJECTID":33.0,"ADR":"RUIMTE ROAD, MANENBERG","NAME":"RUIMTE ROAD SATELLITE","TYPE":1.0,"CLS":9.0},"geometry":{"type":"Point","coordinates":[18.549711063337227,-33.981234279627188]}},{"type":"Feature","properties":{"fid":"34","OBJECTID":34.0,"ADR":"KLIPFONTEIN ROAD CROSSROADS","NAME":"CROSSROADS 1 CLINIC","TYPE":1.0,"CLS":1.0},"geometry":{"type":"Point","coordinates":[18.602901728809304,-33.993394406287095]}},{"type":"Feature","properties":{"fid":"35","OBJECTID":35.0,"ADR":"C/O TONI YENGENI AND LANSDOWNE ROAD CROSSROADS","NAME":"CROSSROADS 2 CLINIC","TYPE":2.0,"CLS":1.0},"geometry":{"type":"Point","coordinates":[18.597680025117,-33.998209624742529]}},{"type":"Feature","properties":{"fid":"36","OBJECTID":36.0,"ADR":"WASHINGTON STREET, LANGA","NAME":"LANGA CLINIC","TYPE":1.0,"CLS":1.0},"geometry":{"type":"Point","coordinates":[18.527564666816257,-33.944215018007377]}},{"type":"Feature","properties":{"fid":"37","OBJECTID":37.0,"ADR":"PETUNIA ROAD, SILVERTOWN","NAME":"SILVERTOWN CLINIC","TYPE":1.0,"CLS":1.0},"geometry":{"type":"Point","coordinates":[18.534690758955747,-33.96648307499607]}},{"type":"Feature","properties":{"fid":"38","OBJECTID":38.0,"ADR":"HONEYSIDE ROAD, ATHLONE","NAME":"HONEYSIDE SATELLITE","TYPE":1.0,"CLS":9.0},"geometry":{"type":"Point","coordinates":[18.515163055938295,-33.979981383498675]}},{"type":"Feature","properties":{"fid":"39","OBJECTID":39.0,"ADR":"SURRAN ROAD, NEWFIELDS","NAME":"NEWFIELDS SATELLITE","TYPE":1.0,"CLS":9.0},"geometry":{"type":"Point","coordinates":[18.530149346314211,-33.9860247254679]}},{"type":"Feature","properties":{"fid":"40","OBJECTID":40.0,"ADR":"LANDSDOWNE ROAD, LANSDOWNE ","NAME":"LANSDOWNE CLINIC","TYPE":1.0,"CLS":1.0},"geometry":{"type":"Point","coordinates":[18.505174921760311,-33.991543690931934]}},{"type":"Feature","properties":{"fid":"41","OBJECTID":41.0,"ADR":"HANOVER PARK AVENUE, HANOVER PARK","NAME":"HANOVER PARK CLINIC","TYPE":1.0,"CLS":1.0},"geometry":{"type":"Point","coordinates":[18.526505741571935,-33.994761543349121]}},{"type":"Feature","properties":{"fid":"42","OBJECTID":42.0,"ADR":"KHWAHLAZA ROAD, KHAYELITSHA ","NAME":"MATTHEW GONIWE CDC","TYPE":1.0,"CLS":3.0},"geometry":{"type":"Point","coordinates":[18.705717721709739,-34.044242754215958]}},{"type":"Feature","properties":{"fid":"43","OBJECTID":43.0,"ADR":"HLELA ROAD,KHAYELITSHA TOWN 3 VILLAGE 3 / MACASSAR","NAME":"LUVUYO CDC","TYPE":1.0,"CLS":3.0},"geometry":{"type":"Point","coordinates":[18.709491671691453,-34.05050143658859]}},{"type":"Feature","properties":{"fid":"44","OBJECTID":44.0,"ADR":"FUNDANA ROAD KHAYELITSHA TOWN 3 VILLAGE 4 / MAKHAZA","NAME":"MAYENZEKE CLINIC","TYPE":1.0,"CLS":1.0},"geometry":{"type":"Point","coordinates":[18.702234430118775,-34.052142464798976]}},{"type":"Feature","properties":{"fid":"45","OBJECTID":45.0,"ADR":"3719 STOCK ROAD, PHILLIPPI EAST","NAME":"PHUMLANI CLINIC","TYPE":1.0,"CLS":1.0},"geometry":{"type":"Point","coordinates":[18.607476499463246,-34.01043518723835]}},{"type":"Feature","properties":{"fid":"46","OBJECTID":46.0,"ADR":"SAGWITYI ROAD, BROWNS FARM","NAME":"MZAMOMHLE CLINIC","TYPE":1.0,"CLS":1.0},"geometry":{"type":"Point","coordinates":[18.588848471395561,-34.010796112579484]}},{"type":"Feature","properties":{"fid":"47","OBJECTID":47.0,"ADR":"C/O WESPOORT AND DE DUIN ROADS, WESTRIDGE, MITCHELLS PLAIN","NAME":"WESTRIDGE CLINIC","TYPE":1.0,"CLS":1.0},"geometry":{"type":"Point","coordinates":[18.604050546272973,-34.051688954218754]}},{"type":"Feature","properties":{"fid":"48","OBJECTID":48.0,"ADR":"A544 ZAKELE ROAD KHAYELITSHA","NAME":"ZAKHELE CLINIC","TYPE":1.0,"CLS":1.0},"geometry":{"type":"Point","coordinates":[18.659319074498676,-34.041338065294731]}},{"type":"Feature","properties":{"fid":"49","OBJECTID":49.0,"ADR":"C/O KILIMANJARO & PYRENEES STREET, TAFELSIG","NAME":"TAFELSIG CDC","TYPE":1.0,"CLS":3.0},"geometry":{"type":"Point","coordinates":[18.637149612450163,-34.06226819341709]}},{"type":"Feature","properties":{"fid":"50","OBJECTID":50.0,"ADR":"PARK AVENUE, ROCKLANDS","NAME":"ROCKLANDS CLINIC","TYPE":1.0,"CLS":1.0},"geometry":{"type":"Point","coordinates":[18.611278230110671,-34.064568006793081]}},{"type":"Feature","properties":{"fid":"51","OBJECTID":51.0,"ADR":"HOUT BAY MAIN ROAD, HOUT BAY","NAME":"HOUT BAY CLINIC","TYPE":1.0,"CLS":1.0},"geometry":{"type":"Point","coordinates":[18.357199549230323,-34.029125493962681]}},{"type":"Feature","properties":{"fid":"52","OBJECTID":52.0,"ADR":"MELKBOS STREET, LENTEGEUR","NAME":"LENTEGEUR CLINIC","TYPE":1.0,"CLS":1.0},"geometry":{"type":"Point","coordinates":[18.609997869002022,-34.034324736863525]}},{"type":"Feature","properties":{"fid":"53","OBJECTID":53.0,"ADR":"MAIN ROAD, PELLA","NAME":"PELLA SATELLITE CLINIC","TYPE":2.0,"CLS":9.0},"geometry":{"type":"Point","coordinates":[18.520574798548463,-33.539650753774183]}},{"type":"Feature","properties":{"fid":"54","OBJECTID":54.0,"ADR":"GARDENIA AVENUE, PROTEA PARK, ATLANTIS","NAME":"PROTEA PARK CLINIC","TYPE":2.0,"CLS":1.0},"geometry":{"type":"Point","coordinates":[18.497627507094197,-33.576672601504846]}},{"type":"Feature","properties":{"fid":"55","OBJECTID":55.0,"ADR":"C/O BOYCE AND DELFT MAIN ROAD, DELFT","NAME":"DELFT SOUTH CLINIC","TYPE":1.0,"CLS":1.0},"geometry":{"type":"Point","coordinates":[18.633278604272864,-33.991599072091809]}},{"type":"Feature","properties":{"fid":"56","OBJECTID":56.0,"ADR":"SOUTH ROAD, TABLE VIEW","NAME":"TABLE VIEW CLINIC","TYPE":1.0,"CLS":1.0},"geometry":{"type":"Point","coordinates":[18.513592741689312,-33.832912411630197]}},{"type":"Feature","properties":{"fid":"57","OBJECTID":57.0,"ADR":"CNR 11TH & FACTRETON AVE, FACTRETON","NAME":"FACTRETON CLINIC","TYPE":1.0,"CLS":1.0},"geometry":{"type":"Point","coordinates":[18.511051775774831,-33.909478941298325]}},{"type":"Feature","properties":{"fid":"58","OBJECTID":58.0,"ADR":"SHOP 19 - MERRYDALE CENTRE, RYAN STREET, MANDALAY","NAME":"MANDALAY SATELLITE","TYPE":1.0,"CLS":9.0},"geometry":{"type":"Point","coordinates":[18.623781598835151,-34.01857563813531]}},{"type":"Feature","properties":{"fid":"59","OBJECTID":59.0,"ADR":"CNR OLIVER TAMBO & LEONARD RADU STREET, WELTEVREDEN VALLEY","NAME":"WELTEVREDEN VALLEY CLINIC","TYPE":1.0,"CLS":1.0},"geometry":{"type":"Point","coordinates":[18.58386073040489,-34.016794014552126]}},{"type":"Feature","properties":{"fid":"60","OBJECTID":60.0,"ADR":"SAM NJOKOZELA AVE, BLOEKOMBOS, KRAAIFONTEIN","NAME":"BLOEKOMBOS CLINIC","TYPE":1.0,"CLS":1.0},"geometry":{"type":"Point","coordinates":[18.750803855883309,-33.847198762825869]}},{"type":"Feature","properties":{"fid":"61","OBJECTID":61.0,"ADR":"PARADYS STREET BRACKENFELL","NAME":"BRACKENFELL CLINIC","TYPE":1.0,"CLS":1.0},"geometry":{"type":"Point","coordinates":[18.688296590925972,-33.876685803950849]}},{"type":"Feature","properties":{"fid":"62","OBJECTID":62.0,"ADR":"CARINUS STREET (CHURCH) KUILSRIVER","NAME":"KUILSRIVER CLINIC","TYPE":1.0,"CLS":1.0},"geometry":{"type":"Point","coordinates":[18.681273424977842,-33.925273239246032]}},{"type":"Feature","properties":{"fid":"63","OBJECTID":63.0,"ADR":"LA BOHEME STREET, WALLACEDENE","NAME":"WALLACEDENE CLINIC","TYPE":1.0,"CLS":1.0},"geometry":{"type":"Point","coordinates":[18.736324899845179,-33.858140070537708]}},{"type":"Feature","properties":{"fid":"64","OBJECTID":64.0,"ADR":"SILVERSANDS MAIN ROAD, WEST BANK","NAME":"WESBANK CLINIC","TYPE":1.0,"CLS":1.0},"geometry":{"type":"Point","coordinates":[18.659435912089489,-33.969504847550333]}},{"type":"Feature","properties":{"fid":"65","OBJECTID":65.0,"ADR":"BOKMAKIERIE ROAD, HAZENDAL","NAME":"HAZENDAL SATELLITE","TYPE":1.0,"CLS":9.0},"geometry":{"type":"Point","coordinates":[18.505256944599463,-33.957998825825292]}},{"type":"Feature","properties":{"fid":"66","OBJECTID":66.0,"ADR":"C/O GOVAN MBEKI & OTTERY ROAD, PHILLIPI","NAME":"PHILLIPI CLINIC","TYPE":1.0,"CLS":1.0},"geometry":{"type":"Point","coordinates":[18.539270460091586,-34.000334391714581]}},{"type":"Feature","properties":{"fid":"67","OBJECTID":67.0,"ADR":"SCHAAY ROAD, DIEP RIVER","NAME":"DIEP RIVER CLINIC","TYPE":1.0,"CLS":1.0},"geometry":{"type":"Point","coordinates":[18.466476360664025,-34.034103446858012]}},{"type":"Feature","properties":{"fid":"68","OBJECTID":68.0,"ADR":"KLIP ROAD, GRASSY PARK","NAME":"KLIP ROAD CLINIC","TYPE":1.0,"CLS":1.0},"geometry":{"type":"Point","coordinates":[18.503211463933535,-34.035565616988883]}},{"type":"Feature","properties":{"fid":"69","OBJECTID":69.0,"ADR":"ATLANTIC ROAD MUIZENBERG","NAME":"MUIZENBERG CLINIC","TYPE":1.0,"CLS":1.0},"geometry":{"type":"Point","coordinates":[18.470353624990185,-34.106833488220637]}},{"type":"Feature","properties":{"fid":"70","OBJECTID":70.0,"ADR":"POKELA ROAD, MASIPHUMELELE","NAME":"MASIPHUMELELE CLINIC","TYPE":1.0,"CLS":1.0},"geometry":{"type":"Point","coordinates":[18.378848234213155,-34.128995207634226]}},{"type":"Feature","properties":{"fid":"71","OBJECTID":71.0,"ADR":"CNR POLLUX WAY & CARINA STREET, OCEAN VIEW","NAME":"OCEAN VIEW CDC","TYPE":1.0,"CLS":3.0},"geometry":{"type":"Point","coordinates":[18.350971888558512,-34.14804815602151]}},{"type":"Feature","properties":{"fid":"72","OBJECTID":72.0,"ADR":"WALMER ROAD, PARKWOOD ","NAME":"PARKWOOD CLINIC","TYPE":1.0,"CLS":1.0},"geometry":{"type":"Point","coordinates":[18.4928688415532,-34.032413317755662]}},{"type":"Feature","properties":{"fid":"73","OBJECTID":73.0,"ADR":"RED HILL","NAME":"RED HILL SATELLITE","TYPE":1.0,"CLS":5.0},"geometry":{"type":"Point","coordinates":[18.399197446178881,-34.205766920682549]}},{"type":"Feature","properties":{"fid":"74","OBJECTID":74.0,"ADR":"MILITARY ROAD, SEAWINDS","NAME":"SEAWINDS CLINIC","TYPE":1.0,"CLS":1.0},"geometry":{"type":"Point","coordinates":[18.490247797416231,-34.075022407647005]}},{"type":"Feature","properties":{"fid":"75","OBJECTID":75.0,"ADR":"ST GEORGE STREET, SIMONS TOWN ","NAME":"SIMONS TOWN SATELLITE","TYPE":1.0,"CLS":9.0},"geometry":{"type":"Point","coordinates":[18.434867143966898,-34.193028815173641]}},{"type":"Feature","properties":{"fid":"76","OBJECTID":76.0,"ADR":"44 WESTLAKE ROAD, WESTLAKE","NAME":"WESTLAKE CLINIC","TYPE":1.0,"CLS":1.0},"geometry":{"type":"Point","coordinates":[18.439307749064987,-34.075625273614364]}},{"type":"Feature","properties":{"fid":"77","OBJECTID":77.0,"ADR":"LOWER MAYNARD ROAD WYNBERG","NAME":"WYNBERG CLINIC","TYPE":1.0,"CLS":1.0},"geometry":{"type":"Point","coordinates":[18.470060629896143,-34.004651885560804]}},{"type":"Feature","properties":{"fid":"78","OBJECTID":78.0,"ADR":"KASSELSVLEI ROAD, BELLVILLE SOUTH","NAME":"KASSELSVLEI CLINIC/CDC","TYPE":2.0,"CLS":2.0},"geometry":{"type":"Point","coordinates":[18.64399458459452,-33.915153268981548]}},{"type":"Feature","properties":{"fid":"79","OBJECTID":79.0,"ADR":"11TH AVENUE, ELSIES RIVER","NAME":"LEONSDALE SATELLITE","TYPE":1.0,"CLS":9.0},"geometry":{"type":"Point","coordinates":[18.57595366608896,-33.919166231755547]}},{"type":"Feature","properties":{"fid":"80","OBJECTID":80.0,"ADR":"FLORIDA STREET RAVENSMEAD","NAME":"RAVENSMEAD CLINIC/CDC","TYPE":2.0,"CLS":2.0},"geometry":{"type":"Point","coordinates":[18.597589240636381,-33.92530091105958]}},{"type":"Feature","properties":{"fid":"81","OBJECTID":81.0,"ADR":"RUITERWACHT SHOPPING CENTRE VERENIGING STREET","NAME":"RUITERWACHT CDC","TYPE":2.0,"CLS":3.0},"geometry":{"type":"Point","coordinates":[18.557120524890948,-33.917974695587979]}},{"type":"Feature","properties":{"fid":"82","OBJECTID":82.0,"ADR":"HIBISCUS SQUARE, HIBISCUS ROAD, UITSIG","NAME":"UITSIG CLINIC","TYPE":1.0,"CLS":1.0},"geometry":{"type":"Point","coordinates":[18.599871842815396,-33.935697886849198]}},{"type":"Feature","properties":{"fid":"83","OBJECTID":83.0,"ADR":"MUNICIPAL OFFICES C/O LWANDLE RD & BONGA DRIVE SITE B","NAME":"SITE B MALE CLINIC","TYPE":1.0,"CLS":1.0},"geometry":{"type":"Point","coordinates":[18.665777661041602,-34.027735398633588]}},{"type":"Feature","properties":{"fid":"84","OBJECTID":84.0,"ADR":"DULAH OMAR STREET, FISANTEKRAAL","NAME":"FISANTEKRAAL CLINIC","TYPE":2.0,"CLS":1.0},"geometry":{"type":"Point","coordinates":[18.717880874514375,-33.782108031559382]}},{"type":"Feature","properties":{"fid":"85","OBJECTID":85.0,"ADR":"NTLAZANA STREET, KUYASA","NAME":"KUYASA CDC","TYPE":1.0,"CLS":3.0},"geometry":{"type":"Point","coordinates":[18.689418930463255,-34.055839657382862]}},{"type":"Feature","properties":{"fid":"86","OBJECTID":86.0,"ADR":"CNR SILVERSANDS AND BENTLEY STREET","NAME":"BLUE DOWNS CLINIC","TYPE":1.0,"CLS":1.0},"geometry":{"type":"Point","coordinates":[18.686297453051004,-33.977489499148753]}},{"type":"Feature","properties":{"fid":"87","OBJECTID":87.0,"ADR":"MNANDI ROAD, DU NOON","NAME":"DU NOON CLINIC","TYPE":2.0,"CLS":1.0},"geometry":{"type":"Point","coordinates":[18.540381899694815,-33.819272832699873]}},{"type":"Feature","properties":{"fid":"88","OBJECTID":88.0,"ADR":"FIRST  AVENUE, TOKIN CENTRE, EASTRIDGE","NAME":"EASTRIDGE CLINIC","TYPE":1.0,"CLS":1.0},"geometry":{"type":"Point","coordinates":[18.621459359026606,-34.04624517690408]}},{"type":"Feature","properties":{"fid":"89","OBJECTID":89.0,"ADR":"XWAYI STREET, DRIFTSANDS","NAME":"DRIFTSANDS SATELLITE","TYPE":1.0,"CLS":9.0},"geometry":{"type":"Point","coordinates":[18.651358214972927,-34.005546540038679]}},{"type":"Feature","properties":{"fid":"90","OBJECTID":90.0,"ADR":"C/O MUSICAL AND HOSPITAL STREET MACASSAR","NAME":"MACASSAR CLINIC","TYPE":2.0,"CLS":1.0},"geometry":{"type":"Point","coordinates":[18.763695313404575,-34.06104995644143]}},{"type":"Feature","properties":{"fid":"91","OBJECTID":91.0,"ADR":"C/O MANDELA RD & SIR LOWRYS PASS ROAD","NAME":"SIR LOWRYS PASS CDC","TYPE":1.0,"CLS":3.0},"geometry":{"type":"Point","coordinates":[18.908470942251455,-34.119271020773908]}},{"type":"Feature","properties":{"fid":"92","OBJECTID":92.0,"ADR":"CHARLES MOKOENA STREET, TOWN 2, KHAYELITSHA","NAME":"TOWN 2 CDC","TYPE":1.0,"CLS":3.0},"geometry":{"type":"Point","coordinates":[18.683019789456448,-34.039887681501462]}},{"type":"Feature","properties":{"fid":"93","OBJECTID":93.0,"ADR":"C/O UMBASHE AND Q.NQUBELANI ROADS,","NAME":"DR IVAN TOMS CDC","TYPE":1.0,"CLS":3.0},"geometry":{"type":"Point","coordinates":[18.671360758213869,-33.991182524032624]}},{"type":"Feature","properties":{"fid":"94","OBJECTID":94.0,"ADR":"HEIDEVELD ROAD, HEIDEVELD","NAME":"HEIDEVELD CLINIC","TYPE":2.0,"CLS":2.0},"geometry":{"type":"Point","coordinates":[18.552872559530545,-33.964821534710822]}},{"type":"Feature","properties":{"fid":"95","OBJECTID":95.0,"ADR":"SITHANDATU AVE NYANGA","NAME":"NYANGA CLINIC/CDC","TYPE":2.0,"CLS":2.0},"geometry":{"type":"Point","coordinates":[18.585364908916119,-33.991666949566437]}},{"type":"Feature","properties":{"fid":"96","OBJECTID":96.0,"ADR":"EOAN STREET, SCOTTSDENE, KRAAIFONTEIN","NAME":"SCOTTSDENE CLINIC","TYPE":2.0,"CLS":2.0},"geometry":{"type":"Point","coordinates":[18.721661505709239,-33.865979361221946]}},{"type":"Feature","properties":{"fid":"97","OBJECTID":97.0,"ADR":"DINGLE ROAD GOODWOOD","NAME":"DIRKIE UYS CLINIC/CDC","TYPE":2.0,"CLS":2.0},"geometry":{"type":"Point","coordinates":[18.550550069966437,-33.9107383610433]}},{"type":"Feature","properties":{"fid":"98","OBJECTID":98.0,"ADR":"LAVIS DRIVE BISHOP LAVIS","NAME":"BISHOP LAVIS CLINIC","TYPE":2.0,"CLS":1.0},"geometry":{"type":"Point","coordinates":[18.580651193379918,-33.948243826580722]}},{"type":"Feature","properties":{"fid":"99","OBJECTID":99.0,"ADR":"SOLOMON THUKU ROAD, KHAYELITSHA","NAME":"NOLUNGILE CLINIC/CDC","TYPE":2.0,"CLS":2.0},"geometry":{"type":"Point","coordinates":[18.6504795567085,-34.013511874813915]}},{"type":"Feature","properties":{"fid":"100","OBJECTID":100.0,"ADR":"KHAYELITSHA SITE C / MXOLISI PETANI","NAME":"SITE C YOUTH CLINIC","TYPE":1.0,"CLS":11.0},"geometry":{"type":"Point","coordinates":[18.650960665331567,-34.013601053891115]}},{"type":"Feature","properties":{"fid":"101","OBJECTID":101.0,"ADR":"LWANDLE ROAD SITE B","NAME":"SITE B YOUTH CLINIC","TYPE":1.0,"CLS":11.0},"geometry":{"type":"Point","coordinates":[18.66562972791203,-34.028612726684756]}},{"type":"Feature","properties":{"fid":"102","OBJECTID":102.0,"ADR":"BOBS WAY. EERSTE RIVER","NAME":"EERSTE RIVER CLINIC","TYPE":1.0,"CLS":1.0},"geometry":{"type":"Point","coordinates":[18.724240867950027,-34.008789920994225]}},{"type":"Feature","properties":{"fid":"103","OBJECTID":103.0,"ADR":"CHARL MALAN, BELLVILLE","NAME":"BELLVILLE MENS HEALTH SATELLITE","TYPE":1.0,"CLS":9.0},"geometry":{"type":"Point","coordinates":[18.629400467452271,-33.905395800749588]}},{"type":"Feature","properties":{"fid":"104","OBJECTID":151.0,"ADR":"49 CANDLEWOOD STREET, BONTEHEUWEL","NAME":"VANGUARD CDC","TYPE":2.0,"CLS":3.0},"geometry":{"type":"Point","coordinates":[18.543699536794975,-33.947381840495225]}},{"type":"Feature","properties":{"fid":"105","OBJECTID":153.0,"ADR":"MANENBURG AVENUE, MANENBURG","NAME":"MANENBURG CLINIC","TYPE":1.0,"CLS":1.0},"geometry":{"type":"Point","coordinates":[18.554906451423271,-33.988814949090667]}},{"type":"Feature","properties":{"fid":"106","OBJECTID":154.0,"ADR":"OYSTERCATCHER ROAD, PELIKAN PARK","NAME":"PELIKAN PARK CDC","TYPE":1.0,"CLS":3.0},"geometry":{"type":"Point","coordinates":[18.524362061853555,-34.059999922895983]}},{"type":"Feature","properties":{"fid":"107","OBJECTID":155.0,"ADR":"60 MILKBOS STREET. KLEINVLEI","NAME":"KLEINVLEI CLINIC","TYPE":2.0,"CLS":1.0},"geometry":{"type":"Point","coordinates":[18.717671892322208,-33.987031529195789]}},{"type":"Feature","properties":{"fid":"108","OBJECTID":156.0,"ADR":"91 HASSAN KHAN ROAD STRAND","NAME":"GUSTROUW CLINIC","TYPE":2.0,"CLS":2.0},"geometry":{"type":"Point","coordinates":[18.85204433617843,-34.134948068147295]}},{"type":"Feature","properties":{"fid":"109","OBJECTID":157.0,"ADR":"ELAND ROAD, ATHLONE","NAME":"DR ABDURAHMAN CLINIC","TYPE":2.0,"CLS":2.0},"geometry":{"type":"Point","coordinates":[18.517813965138185,-33.958870234290195]}}]}
